[
  {"id":1,"name":"Vendor A","address":"Bangalore Central","lat":12.9716,"lng":77.5946,"contact":"9876543210","crops":["Tomato","Onion"]},
  {"id":2,"name":"Vendor B","address":"Whitefield","lat":12.9690,"lng":77.7500,"contact":"9876543211","crops":["Potato","Tomato"]},
  {"id":3,"name":"Vendor C","address":"Indiranagar","lat":12.9718,"lng":77.6412,"contact":"9876543212","crops":["Banana"]},
  {"id":4,"name":"Vendor D","address":"Jayanagar","lat":12.9250,"lng":77.5938,"contact":"9876543213","crops":["Mango"]},
  {"id":5,"name":"Vendor E","address":"Koramangala","lat":12.9352,"lng":77.6245,"contact":"9876543214","crops":["Rice"]},
  {"id":6,"name":"Vendor F","address":"HSR Layout","lat":12.9141,"lng":77.6360,"contact":"9876543215","crops":["Maize"]},
  {"id":7,"name":"Vendor G","address":"MG Road","lat":12.9763,"lng":77.6033,"contact":"9876543216","crops":["Tomato"]},
  {"id":8,"name":"Vendor H","address":"Electronic City","lat":12.8396,"lng":77.6770,"contact":"9876543217","crops":["Onion"]},
  {"id":9,"name":"Vendor I","address":"Banaswadi","lat":13.0104,"lng":77.6320,"contact":"9876543218","crops":["Potato"]},
  {"id":10,"name":"Vendor J","address":"Rajajinagar","lat":13.0141,"lng":77.5620,"contact":"9876543219","crops":["Tomato"]},
  {"id":11,"name":"Vendor K","address":"Yelahanka","lat":13.0840,"lng":77.5930,"contact":"9876543220","crops":["Banana"]},
  {"id":12,"name":"Vendor L","address":"Kengeri","lat":12.9142,"lng":77.4836,"contact":"9876543221","crops":["Mango"]},
  {"id":13,"name":"Vendor M","address":"Hebbal","lat":13.0285,"lng":77.5898,"contact":"9876543222","crops":["Rice"]},
  {"id":14,"name":"Vendor N","address":"Sahakara Nagar","lat":13.0371,"lng":77.5765,"contact":"9876543223","crops":["Maize"]},
  {"id":15,"name":"Vendor O","address":"Kanakapura Road","lat":12.8455,"lng":77.5690,"contact":"9876543224","crops":["Tomato"]},
  {"id":16,"name":"Vendor P","address":"HSR Layout","lat":12.9141,"lng":77.6360,"contact":"9876543225","crops":["Onion"]},
  {"id":17,"name":"Vendor Q","address":"Bellandur","lat":12.9250,"lng":77.6820,"contact":"9876543226","crops":["Potato"]},
  {"id":18,"name":"Vendor R","address":"Whitefield","lat":12.9690,"lng":77.7500,"contact":"9876543227","crops":["Banana"]},
  {"id":19,"name":"Vendor S","address":"Marathahalli","lat":12.9744,"lng":77.7367,"contact":"9876543228","crops":["Mango"]},
  {"id":20,"name":"Vendor T","address":"Koramangala","lat":12.9352,"lng":77.6245,"contact":"9876543229","crops":["Rice"]},
  {"id":21,"name":"Vendor U","address":"Indiranagar","lat":12.9718,"lng":77.6412,"contact":"9876543230","crops":["Maize"]},
  {"id":22,"name":"Vendor V","address":"Jayanagar","lat":12.9250,"lng":77.5938,"contact":"9876543231","crops":["Tomato"]},
  {"id":23,"name":"Vendor W","address":"MG Road","lat":12.9763,"lng":77.6033,"contact":"9876543232","crops":["Onion"]},
  {"id":24,"name":"Vendor X","address":"Electronic City","lat":12.8396,"lng":77.6770,"contact":"9876543233","crops":["Potato"]},
  {"id":25,"name":"Vendor Y","address":"Bangalore East","lat":12.9800,"lng":77.6500,"contact":"9876543234","crops":["Banana"]},
  {"id":26,"name":"Vendor Z","address":"Bangalore West","lat":12.9700,"lng":77.5800,"contact":"9876543235","crops":["Mango"]},
  {"id":27,"name":"Vendor AA","address":"Yelahanka","lat":13.0840,"lng":77.5930,"contact":"9876543236","crops":["Rice"]},
  {"id":28,"name":"Vendor AB","address":"Hebbal","lat":13.0285,"lng":77.5898,"contact":"9876543237","crops":["Maize"]},
  {"id":29,"name":"Vendor AC","address":"Kanakapura","lat":12.8455,"lng":77.5690,"contact":"9876543238","crops":["Tomato"]},
  {"id":30,"name":"Vendor AD","address":"Sahakara Nagar","lat":13.0371,"lng":77.5765,"contact":"9876543239","crops":["Onion"]}
]
